City_ID,City,Lat,Lng,Max Temp,Humidity,Cloudiness,Wind Speed,Country,Date,Current description,Rain inches(last 3 hrs),Snow inches(last 3 hrs)
0,Tevriz,57.509,72.4042,5.13,93,100,6.53,RU,2021-01-16 01:09:30,overcast clouds,0,0
1,Nanortalik,60.1432,-45.2371,25.9,94,99,9.37,GL,2021-01-16 01:09:31,overcast clouds,0,0
2,Hilo,19.7297,-155.09,82.4,57,20,13.8,US,2021-01-16 01:09:31,few clouds,0,0
3,Port Macquarie,-31.4333,152.9167,82.99,31,0,1.99,AU,2021-01-16 01:09:31,clear sky,0,0
4,Vaini,-21.2,-175.2,87.8,74,75,11.5,TO,2021-01-16 01:09:31,broken clouds,0,0
5,Canutama,-6.5339,-64.3831,74.61,91,100,1.66,BR,2021-01-16 01:09:31,overcast clouds,0,0
6,Ushuaia,-54.8,-68.3,62.6,51,40,10.36,AR,2021-01-16 01:08:44,scattered clouds,0,0
7,Ponta Do Sol,32.6667,-17.1,52.0,63,16,5.01,PT,2021-01-16 01:09:31,few clouds,0,0
8,Esfarayen,37.0765,57.5101,33.8,47,0,2.04,IR,2021-01-16 01:09:31,clear sky,0,0
9,Jamestown,42.097,-79.2353,37.0,100,90,10.36,US,2021-01-16 01:09:31,overcast clouds,0,0
10,Kapaa,22.0752,-159.319,78.01,88,90,4.61,US,2021-01-16 01:09:31,light rain,0,0
11,Nikolskoye,59.7035,30.7861,1.0,84,20,4.47,RU,2021-01-16 01:09:31,few clouds,0,0
12,Key Largo,25.0865,-80.4473,71.01,76,98,9.37,US,2021-01-16 01:06:10,overcast clouds,0,0
13,Vardo,70.3705,31.1107,35.22,95,100,14.58,NO,2021-01-16 01:09:32,light snow,0,0
14,Yerofey Pavlovich,53.9667,121.9667,-17.91,87,100,0.69,RU,2021-01-16 01:09:32,overcast clouds,0,0
15,Rikitea,-23.1203,-134.9692,79.68,66,0,8.1,PF,2021-01-16 01:09:32,clear sky,0,0
16,Mount Isa,-20.7333,139.5,95.0,20,4,12.66,AU,2021-01-16 01:09:32,clear sky,0,0
17,Halifax,44.6453,-63.5724,30.2,80,0,4.61,CA,2021-01-16 01:05:43,clear sky,0,0
18,Miyako,39.6367,141.9525,46.2,74,100,7.83,JP,2021-01-16 01:09:32,overcast clouds,0,0
19,Qaanaaq,77.484,-69.3632,9.77,92,99,2.33,GL,2021-01-16 01:09:32,overcast clouds,0,0
20,Cap Malheureux,-19.9842,57.6142,80.01,84,95,4.0,MU,2021-01-16 01:09:32,overcast clouds,0,0
21,Hermanus,-34.4187,19.2345,57.99,91,3,10.96,ZA,2021-01-16 01:09:32,clear sky,0,0
22,Forbes,-33.3833,148.0167,69.98,23,0,11.43,AU,2021-01-16 01:09:32,clear sky,0,0
23,Kodiak,57.79,-152.4072,35.6,87,90,2.91,US,2021-01-16 01:09:32,overcast clouds,0,0
24,Klaksvik,62.2266,-6.589,42.8,81,75,31.07,FO,2021-01-16 01:09:33,broken clouds,0,0
25,Barcelos,41.5388,-8.6151,44.01,100,20,2.3,PT,2021-01-16 01:09:10,few clouds,0,0
26,Victoria Falls,-17.9235,25.843,69.35,92,100,6.04,ZW,2021-01-16 01:09:33,overcast clouds,0,0
27,Souillac,-20.5167,57.5167,78.8,94,40,4.61,MU,2021-01-16 01:09:33,scattered clouds,0,0
28,Butaritari,3.0707,172.7902,81.28,78,0,21.0,KI,2021-01-16 01:09:33,clear sky,0,0
29,Kiunga,-6.1219,141.2906,88.39,61,76,3.51,PG,2021-01-16 01:09:33,broken clouds,0,0
30,Bereda,43.2686,-7.5406,35.01,100,100,3.0,ES,2021-01-16 01:09:33,overcast clouds,0,0
31,Walvis Bay,-22.9575,14.5053,71.01,82,17,2.3,NA,2021-01-16 01:09:33,few clouds,0,0
32,Puerto Cabezas,14.0351,-83.3888,74.71,87,1,4.85,NI,2021-01-16 01:09:33,clear sky,0,0
33,Ribeira Grande,38.5167,-28.7,61.2,85,15,8.46,PT,2021-01-16 01:09:33,few clouds,0,0
34,Bluff,-46.6,168.3333,73.0,63,16,8.99,NZ,2021-01-16 01:09:33,few clouds,0,0
35,Arraial Do Cabo,-22.9661,-42.0278,76.06,88,0,20.69,BR,2021-01-16 01:09:33,clear sky,0,0
36,Jalu,29.0331,21.5482,48.07,69,0,4.21,LY,2021-01-16 01:09:34,clear sky,0,0
37,Mataura,-46.1927,168.8643,73.0,63,0,8.99,NZ,2021-01-16 01:09:34,clear sky,0,0
38,Sechura,-5.5569,-80.8222,71.94,81,100,8.88,PE,2021-01-16 01:09:34,overcast clouds,0,0
39,Dikson,73.5069,80.5464,-32.49,79,88,4.54,RU,2021-01-16 01:09:34,overcast clouds,0,0
40,Provideniya,64.3833,-173.3,13.12,93,100,4.32,RU,2021-01-16 01:09:34,overcast clouds,0,0
41,Mahebourg,-20.4081,57.7,78.8,94,40,4.61,MU,2021-01-16 01:09:34,scattered clouds,0,0
42,Hobart,-42.8794,147.3294,64.0,44,40,10.36,AU,2021-01-16 01:07:59,scattered clouds,0,0
43,Mogadishu,2.0371,45.3438,76.33,86,1,18.32,SO,2021-01-16 01:09:34,clear sky,0,0
44,Port Alfred,-33.5906,26.891,68.0,86,0,5.99,ZA,2021-01-16 01:09:34,light rain,0,0
45,Ottawa,45.4112,-75.6981,33.01,80,90,16.11,CA,2021-01-16 01:09:34,overcast clouds,0,0
46,Odweyne,9.4092,45.064,62.08,31,61,10.96,SO,2021-01-16 01:09:34,broken clouds,0,0
47,Tuktoyaktuk,69.4541,-133.0374,-14.8,84,75,18.41,CA,2021-01-16 01:09:35,snow,0,0
48,Tasiilaq,65.6145,-37.6368,32.0,93,90,13.8,GL,2021-01-16 01:09:35,light snow,0,0
49,Brae,60.3964,-1.353,42.8,75,75,32.21,GB,2021-01-16 01:09:35,broken clouds,0,0
50,Chokurdakh,70.6333,147.9167,-5.08,91,100,11.39,RU,2021-01-16 01:09:35,overcast clouds,0,0
51,Busselton,-33.65,115.3333,70.0,57,0,7.0,AU,2021-01-16 01:09:35,clear sky,0,0
52,Magdeburg,52.1667,11.6667,30.0,69,10,5.99,DE,2021-01-16 01:09:18,clear sky,0,0
53,Anadyr,64.75,177.4833,-4.0,84,75,13.42,RU,2021-01-16 01:09:35,snow,0,0
54,Okha,53.5739,142.9478,-12.98,86,0,10.49,RU,2021-01-16 01:09:35,clear sky,0,0
55,Barguzin,53.6167,109.6167,-6.54,82,82,7.47,RU,2021-01-16 01:09:35,broken clouds,0,0
56,Punta Arenas,-53.15,-70.9167,55.0,87,20,11.5,CL,2021-01-16 01:09:35,few clouds,0,0
57,Laguna,38.421,-121.4238,61.0,72,1,8.05,US,2021-01-16 01:09:35,haze,0,0
58,Xiantao,30.3833,113.4,42.78,62,94,14.74,CN,2021-01-16 01:09:35,overcast clouds,0,0
59,Pisco,-13.7,-76.2167,69.8,83,0,18.41,PE,2021-01-16 01:09:36,clear sky,0,0
60,Yenagoa,4.9247,6.2642,75.79,90,0,4.68,NG,2021-01-16 01:09:36,clear sky,0,0
61,Kopervik,59.2835,5.3067,30.99,93,90,5.75,NO,2021-01-16 01:09:36,overcast clouds,0,0
62,Tiksi,71.6872,128.8694,-12.17,90,100,6.26,RU,2021-01-16 01:09:36,overcast clouds,0,0
63,Geraldton,-28.7667,114.6,89.6,33,0,28.77,AU,2021-01-16 01:09:36,clear sky,0,0
64,Albany,42.6001,-73.9662,39.99,76,100,11.48,US,2021-01-16 01:07:03,overcast clouds,0,0
65,Saint-Philippe,-21.3585,55.7679,77.0,83,20,3.44,RE,2021-01-16 01:09:36,few clouds,0,0
66,Boone,39.0334,-92.3335,33.01,81,100,7.0,US,2021-01-16 01:09:36,overcast clouds,0,0
67,Faanui,-16.4833,-151.75,81.54,75,0,12.71,PF,2021-01-16 01:09:36,light rain,0,0
68,East London,-33.0153,27.9116,71.62,75,0,17.22,ZA,2021-01-16 01:09:36,clear sky,0,0
69,Independence,39.0911,-94.4155,32.0,86,90,12.66,US,2021-01-16 01:05:00,light snow,0,0
70,Cape Town,-33.9258,18.4232,66.99,94,75,10.36,ZA,2021-01-16 01:08:45,light rain,0,0
71,Saint-Georges,12.0564,-61.7485,78.8,78,75,11.5,GD,2021-01-16 01:09:37,broken clouds,0,0
72,Sumbe,-11.2061,13.8437,73.53,84,25,8.03,AO,2021-01-16 01:09:37,scattered clouds,0,0
73,Ahipara,-35.1667,173.1667,72.63,51,47,6.51,NZ,2021-01-16 01:09:37,scattered clouds,0,0
74,Broken Hill,-31.95,141.4333,62.6,39,75,17.27,AU,2021-01-16 01:09:37,broken clouds,0,0
75,Yar-Sale,66.8333,70.8333,-2.04,92,100,5.91,RU,2021-01-16 01:09:37,overcast clouds,0,0
76,Morgan City,29.6994,-91.2068,52.0,40,1,10.36,US,2021-01-16 01:09:37,clear sky,0,0
77,Cholet,47.1667,-1.0,32.0,91,100,4.21,FR,2021-01-16 01:09:37,overcast clouds,0,0
78,Zilair,52.2332,57.4392,13.26,96,100,12.01,RU,2021-01-16 01:09:37,snow,0,0
79,Makhalino,53.0854,46.2211,16.43,97,100,1.66,RU,2021-01-16 01:09:37,light snow,0,0
80,Moss Vale,-34.55,150.3833,71.01,28,0,12.66,AU,2021-01-16 01:09:37,clear sky,0,0
81,Sanandaj,35.3144,46.9923,34.75,87,45,2.53,IR,2021-01-16 01:09:38,scattered clouds,0,0
82,Santa Isabel,-23.3156,-46.2214,68.0,94,40,5.75,BR,2021-01-16 01:09:38,light rain,0,0
83,Cabo San Lucas,22.8909,-109.9124,73.4,21,1,6.91,MX,2021-01-16 01:09:38,clear sky,0,0
84,Ugoofaaru,5.6667,73.0,80.78,72,30,13.06,MV,2021-01-16 01:09:38,scattered clouds,0,0
85,Werda,-25.2667,23.2833,76.6,57,99,9.91,BW,2021-01-16 01:09:38,overcast clouds,0,0
86,Georgetown,5.4112,100.3354,78.8,94,20,4.61,MY,2021-01-16 01:09:38,few clouds,0,0
87,Qujing,25.4833,103.7833,50.0,60,99,3.4,CN,2021-01-16 01:09:38,overcast clouds,0,0
88,Zhezkazgan,47.8043,67.7144,8.04,89,100,12.53,KZ,2021-01-16 01:09:38,overcast clouds,0,0
89,Puerto Ayora,-0.7393,-90.3518,75.0,92,100,4.0,EC,2021-01-16 01:09:38,overcast clouds,0,0
90,Saint George,37.1041,-113.5841,57.2,21,1,1.92,US,2021-01-16 01:05:15,clear sky,0,0
91,Acajutla,13.5928,-89.8275,82.4,61,20,5.75,SV,2021-01-16 01:09:38,few clouds,0,0
92,Mar Del Plata,-38.0023,-57.5575,72.0,78,0,6.91,AR,2021-01-16 01:05:20,clear sky,0,0
93,Kieta,-6.2167,155.6333,86.72,57,100,5.64,PG,2021-01-16 01:09:38,overcast clouds,0,0
94,Challapata,-18.9,-66.7667,52.12,66,100,7.0,BO,2021-01-16 01:09:39,light rain,0,0
95,Atuona,-9.8,-139.0333,77.61,76,7,12.28,PF,2021-01-16 01:09:39,clear sky,0,0
96,Yichun,47.7,128.9,-12.03,86,18,1.92,CN,2021-01-16 01:09:39,few clouds,0,0
97,Aljezur,37.3191,-8.8033,43.0,100,0,1.01,PT,2021-01-16 01:09:39,clear sky,0,0
98,Oksfjord,70.2396,22.3479,37.4,80,75,5.75,NO,2021-01-16 01:09:39,light snow,0,0
99,Greencastle,39.6445,-86.8647,34.0,86,75,3.44,US,2021-01-16 01:09:10,broken clouds,0,0
100,Richards Bay,-28.783,32.0377,77.43,88,90,12.62,ZA,2021-01-16 01:06:38,overcast clouds,0,0
101,Ubatuba,-23.4339,-45.0711,69.8,94,90,1.54,BR,2021-01-16 01:09:39,moderate rain,0,0
102,Samarai,-10.6167,150.6667,86.38,70,97,14.67,PG,2021-01-16 01:09:36,light rain,0,0
103,Barrow,71.2906,-156.7887,-9.4,70,90,17.27,US,2021-01-16 01:09:33,overcast clouds,0,0
104,Tamandare,-8.7597,-35.1047,76.51,80,100,7.67,BR,2021-01-16 01:09:39,overcast clouds,0,0
105,Ketchikan,55.3422,-131.6461,42.8,93,90,10.36,US,2021-01-16 01:05:40,light rain,0,0
106,Tura,25.5198,90.2201,53.51,54,0,1.97,IN,2021-01-16 01:09:39,clear sky,0,0
107,Nuuk,64.1835,-51.7216,23.0,63,75,5.32,GL,2021-01-16 01:06:11,broken clouds,0,0
108,Avarua,-21.2078,-159.775,86.0,70,20,10.36,CK,2021-01-16 01:09:40,few clouds,0,0
109,Saint-Pierre,-21.3393,55.4781,77.0,83,20,3.44,RE,2021-01-16 01:09:40,few clouds,0,0
110,La Ronge,55.1001,-105.2842,19.4,79,100,8.05,CA,2021-01-16 01:09:40,overcast clouds,0,0
111,Berlevag,70.8578,29.0864,35.67,88,100,21.72,NO,2021-01-16 01:09:40,light rain,0,0
112,Mount Gambier,-37.8333,140.7667,59.0,63,90,14.97,AU,2021-01-16 01:09:40,overcast clouds,0,0
113,Krasnoselkup,65.7,82.4667,-8.81,90,100,15.3,RU,2021-01-16 01:09:40,overcast clouds,0,0
114,Izumo,35.3667,132.7667,48.2,93,75,5.75,JP,2021-01-16 01:09:40,broken clouds,0,0
115,Thompson,55.7435,-97.8558,5.0,85,75,5.75,CA,2021-01-16 01:08:54,broken clouds,0,0
116,Bredasdorp,-34.5322,20.0403,64.4,72,0,9.22,ZA,2021-01-16 01:09:40,clear sky,0,0
117,New Norfolk,-42.7826,147.0587,64.0,56,50,5.01,AU,2021-01-16 01:09:41,scattered clouds,0,0
118,Ilulissat,69.2167,-51.1,15.8,62,75,9.22,GL,2021-01-16 01:09:41,broken clouds,0,0
119,Coahuayana,18.7333,-103.6833,75.2,50,40,1.39,MX,2021-01-16 01:09:41,scattered clouds,0,0
120,Ucluelet,48.9329,-125.5528,48.2,93,90,2.3,CA,2021-01-16 01:07:47,overcast clouds,0,0
121,Aksarka,66.5606,67.7975,-4.79,92,100,3.69,RU,2021-01-16 01:09:41,overcast clouds,0,0
122,San Quintin,30.4833,-115.95,67.86,35,0,2.28,MX,2021-01-16 01:09:41,clear sky,0,0
123,Saskylakh,71.9167,114.0833,-17.39,86,100,14.81,RU,2021-01-16 01:09:41,overcast clouds,0,0
124,Khatanga,71.9667,102.5,-44.72,78,25,3.2,RU,2021-01-16 01:09:35,scattered clouds,0,0
125,Maldonado,-34.6667,-54.9167,78.01,83,90,11.5,UY,2021-01-16 01:09:41,heavy intensity rain,0,0
126,Lima,-12.0432,-77.0282,69.8,83,0,12.66,PE,2021-01-16 01:05:39,clear sky,0,0
127,Manokwari,-0.8667,134.0833,84.15,69,100,4.16,ID,2021-01-16 01:09:42,overcast clouds,0,0
128,Rudbar,30.15,62.6,47.88,39,0,4.83,AF,2021-01-16 01:09:42,clear sky,0,0
129,Neuquen,-38.9516,-68.0591,66.2,34,0,8.05,AR,2021-01-16 01:09:42,clear sky,0,0
130,Bengkulu,-3.8004,102.2655,77.92,75,93,3.8,ID,2021-01-16 01:09:33,overcast clouds,0,0
131,San Alfonso,7.7803,126.4203,82.87,72,100,2.53,PH,2021-01-16 01:09:42,light rain,0,0
132,Dukat,62.55,155.55,-35.36,80,91,2.73,RU,2021-01-16 01:09:42,overcast clouds,0,0
133,Port Elizabeth,-33.918,25.5701,68.0,73,20,26.46,ZA,2021-01-16 01:09:42,light rain,0,0
134,Santa Cruz De La Palma,28.6835,-17.7642,62.6,55,90,12.66,ES,2021-01-16 01:09:42,overcast clouds,0,0
135,Kaseda,31.4167,130.3167,60.8,77,20,12.66,JP,2021-01-16 01:09:43,few clouds,0,0
136,Huancabamba,-5.2386,-79.4506,59.34,82,100,1.48,PE,2021-01-16 01:09:43,overcast clouds,0,0
137,Kushima,31.4583,131.2333,60.8,77,20,12.66,JP,2021-01-16 01:09:43,few clouds,0,0
138,Camopi,3.1655,-52.3158,72.27,98,100,2.59,GF,2021-01-16 01:09:43,overcast clouds,0,0
139,Castro,-24.7911,-50.0119,63.77,96,40,7.67,BR,2021-01-16 01:09:43,scattered clouds,0,0
140,San Cristobal,7.7669,-72.225,66.9,88,98,1.86,VE,2021-01-16 01:08:36,light rain,0,0
141,Yellowknife,62.456,-114.3525,10.4,85,90,17.27,CA,2021-01-16 01:09:43,snow,0,0
142,Marsaxlokk,35.8419,14.5431,55.0,82,20,29.93,MT,2021-01-16 01:09:43,few clouds,0,0
143,Pirapora,-17.345,-44.9419,70.92,89,100,3.4,BR,2021-01-16 01:09:43,overcast clouds,0,0
144,Hami,42.8,93.45,10.29,78,0,2.98,CN,2021-01-16 01:09:44,clear sky,0,0
145,Cherskiy,68.75,161.3,-24.99,86,91,2.91,RU,2021-01-16 01:09:44,overcast clouds,0,0
146,Carnarvon,-24.8667,113.6333,82.4,94,0,10.36,AU,2021-01-16 01:09:33,clear sky,0,0
147,Itoman,26.1247,127.6694,69.8,78,20,8.05,JP,2021-01-16 01:09:44,few clouds,0,0
148,Le Vauclin,14.5452,-60.8388,77.0,83,75,6.91,MQ,2021-01-16 01:09:44,broken clouds,0,0
149,Lithakia,37.7167,20.8333,46.4,100,95,2.3,GR,2021-01-16 01:09:44,overcast clouds,0,0
150,Nova Vicosa,-17.8919,-39.3719,76.12,86,100,8.25,BR,2021-01-16 01:05:22,light rain,0,0
151,Codrington,-38.2667,141.9667,57.15,72,100,14.85,AU,2021-01-16 01:09:44,overcast clouds,0,0
152,Vao,-22.6667,167.4833,78.73,89,100,14.14,NC,2021-01-16 01:09:44,overcast clouds,0,0
153,Chumikan,54.7183,135.315,-19.16,81,0,17.92,RU,2021-01-16 01:09:44,clear sky,0,0
154,Morant Bay,17.8815,-76.4093,80.6,69,20,17.27,JM,2021-01-16 01:09:44,few clouds,0,0
155,Necochea,-38.5473,-58.7368,69.01,84,97,15.5,AR,2021-01-16 01:09:44,overcast clouds,0,0
156,Maiduguri,11.8464,13.1603,63.16,29,23,6.4,NG,2021-01-16 01:09:45,few clouds,0,0
157,San Patricio,28.017,-97.5169,57.2,43,1,5.75,US,2021-01-16 01:09:45,clear sky,0,0
158,Buta,2.7858,24.73,70.59,87,13,2.08,CD,2021-01-16 01:09:45,few clouds,0,0
159,Dingle,10.9995,122.6711,80.64,83,58,13.6,PH,2021-01-16 01:09:45,light rain,0,0
160,Carauari,-4.8828,-66.8958,75.0,96,100,1.99,BR,2021-01-16 01:09:45,overcast clouds,0,0
161,Hakkari,37.5833,44.1667,19.42,92,67,3.6,TR,2021-01-16 01:09:45,broken clouds,0,0
162,Marsa Matruh,31.3525,27.2453,57.2,67,40,13.8,EG,2021-01-16 01:09:45,scattered clouds,0,0
163,Payakumbuh,-0.2202,100.6308,71.67,76,99,1.57,ID,2021-01-16 01:09:45,overcast clouds,0,0
164,Waddan,29.1614,16.139,48.4,51,0,6.85,LY,2021-01-16 01:09:45,clear sky,0,0
165,Harper,4.375,-7.7169,77.81,87,46,8.05,LR,2021-01-16 01:09:45,scattered clouds,0,0
166,Yeppoon,-23.1333,150.7333,87.8,45,14,3.44,AU,2021-01-16 01:09:45,few clouds,0,0
167,Moose Factory,51.2585,-80.6094,30.2,93,90,2.3,CA,2021-01-16 01:09:45,overcast clouds,0,0
168,Miramar,25.9873,-80.2323,71.6,56,1,4.61,US,2021-01-16 01:05:29,clear sky,0,0
169,Yulara,-25.2406,130.9889,64.4,77,90,10.36,AU,2021-01-16 01:09:46,overcast clouds,0,0
170,Los Llanos De Aridane,28.6585,-17.9182,62.6,55,90,12.66,ES,2021-01-16 01:09:46,overcast clouds,0,0
171,Sobolevo,54.4299,31.8996,-9.15,90,56,5.86,RU,2021-01-16 01:09:46,broken clouds,0,0
172,Samfya,-11.3649,29.5565,64.54,93,100,5.64,ZM,2021-01-16 01:09:46,overcast clouds,0,0
173,Smithers,54.7804,-127.1743,39.2,70,20,6.91,CA,2021-01-16 01:09:46,few clouds,0,0
174,Faya,18.3851,42.4509,50.0,87,0,1.79,SA,2021-01-16 01:09:46,clear sky,0,0
175,Puerto Escondido,15.85,-97.0667,77.0,73,40,1.61,MX,2021-01-16 01:09:46,scattered clouds,0,0
176,Alta Floresta,-9.8756,-56.0861,72.43,97,100,3.06,BR,2021-01-16 01:09:46,moderate rain,0,0
177,Chirongui,-12.9319,45.1483,78.8,83,0,2.3,YT,2021-01-16 01:09:46,clear sky,0,0
178,Gravdal,68.1214,13.5031,38.1,77,99,11.3,NO,2021-01-16 01:09:46,overcast clouds,0,0
179,Ancud,-41.8697,-73.8203,53.6,87,40,4.61,CL,2021-01-16 01:09:46,scattered clouds,0,0
180,Susehri,40.1644,38.0867,30.76,93,98,1.36,TR,2021-01-16 01:09:46,overcast clouds,0,0
181,Bulolo,-7.2,146.65,87.33,47,100,2.98,PG,2021-01-16 01:09:47,overcast clouds,0,0
182,Moree,-29.4667,149.85,77.0,19,63,18.41,AU,2021-01-16 01:09:47,broken clouds,0,0
183,Toora-Khem,52.4675,96.11,-12.59,84,100,1.34,RU,2021-01-16 01:09:47,overcast clouds,0,0
184,Boralday,43.3578,76.8594,5.0,85,75,4.47,KZ,2021-01-16 01:09:47,mist,0,0
185,Killarney,52.05,-9.5167,50.59,93,100,7.36,IE,2021-01-16 01:09:47,overcast clouds,0,0
186,Iqaluit,63.7506,-68.5145,14.0,85,90,17.27,CA,2021-01-16 01:09:47,snow,0,0
187,Grindavik,63.8424,-22.4338,35.6,100,90,16.11,IS,2021-01-16 01:09:47,overcast clouds,0,0
188,Severo-Kurilsk,50.6789,156.125,29.34,92,67,9.37,RU,2021-01-16 01:09:47,broken clouds,0,0
189,Santiago De Compostela,42.8805,-8.5457,37.99,93,87,5.75,ES,2021-01-16 01:06:45,overcast clouds,0,0
190,Naze,28.3667,129.4833,60.8,94,75,4.61,JP,2021-01-16 01:09:47,broken clouds,0,0
191,Tremedal,-14.9758,-41.4108,68.86,91,85,5.91,BR,2021-01-16 01:09:47,overcast clouds,0,0
192,Taoudenni,22.6783,-3.9836,55.6,29,100,12.1,ML,2021-01-16 01:09:47,overcast clouds,0,0
193,Mangaluru,12.8667,74.8833,77.0,88,75,3.44,IN,2021-01-16 01:07:52,broken clouds,0,0
194,Tambura,5.6,27.4667,68.45,32,98,3.18,SS,2021-01-16 01:09:48,overcast clouds,0,0
195,Sitka,57.0531,-135.33,42.8,81,90,11.5,US,2021-01-16 01:09:40,light rain,0,0
196,Cabedelo,-6.9811,-34.8339,77.0,83,20,4.61,BR,2021-01-16 01:09:48,few clouds,0,0
197,Bethel,41.3712,-73.414,41.0,75,90,9.22,US,2021-01-16 01:09:48,overcast clouds,0,0
198,Riyadh,24.6877,46.7219,55.4,67,0,2.3,SA,2021-01-16 01:09:29,haze,0,0
199,Hervey Bay,-25.2986,152.8535,88.0,51,40,9.22,AU,2021-01-16 01:09:48,scattered clouds,0,0
200,Tarko-Sale,64.9225,77.785,1.17,93,100,12.73,RU,2021-01-16 01:09:48,light snow,0,0
201,Gat,31.61,34.7642,52.0,80,0,6.35,IL,2021-01-16 01:09:48,clear sky,0,0
202,Kadan,50.3833,13.2667,26.01,86,75,8.05,CZ,2021-01-16 01:09:49,broken clouds,0,0
203,Longyearbyen,78.2186,15.6401,14.0,85,40,4.61,SJ,2021-01-16 01:09:49,scattered clouds,0,0
204,Avera,33.194,-82.5271,42.8,59,1,3.44,US,2021-01-16 01:09:49,haze,0,0
205,Chupa,66.27,33.0549,12.18,96,48,4.23,RU,2021-01-16 01:09:49,scattered clouds,0,0
206,Esperance,-33.8667,121.9,62.6,51,90,12.66,AU,2021-01-16 01:09:40,overcast clouds,0,0
207,Upernavik,72.7868,-56.1549,16.11,96,100,7.29,GL,2021-01-16 01:09:49,light snow,0,0
208,Ostrovnoy,68.0531,39.5131,14.04,95,73,5.41,RU,2021-01-16 01:09:49,broken clouds,0,0
209,Balaipungut,1.05,101.2833,75.2,94,20,2.46,ID,2021-01-16 01:09:49,haze,0,0
210,Fakse Ladeplads,55.2198,12.1701,32.0,79,20,5.75,DK,2021-01-16 01:09:49,few clouds,0,0
211,Boden,65.8252,21.6886,21.2,93,75,8.05,SE,2021-01-16 01:09:49,broken clouds,0,0
212,Segezha,63.7415,34.3222,-2.45,94,74,4.72,RU,2021-01-16 01:09:49,broken clouds,0,0
213,Westport,41.1415,-73.3579,43.0,81,90,21.85,US,2021-01-16 01:09:50,overcast clouds,0,0
214,Mecca,21.4267,39.8261,69.55,64,0,3.47,SA,2021-01-16 01:09:50,clear sky,0,0
215,Hazorasp,41.3194,61.0742,39.2,65,100,4.61,UZ,2021-01-16 01:09:50,overcast clouds,0,0
216,Airai,-8.9266,125.4092,66.96,100,100,1.86,TL,2021-01-16 01:09:50,overcast clouds,0,0
217,Kavaratti,10.5669,72.642,81.82,74,90,6.69,IN,2021-01-16 01:09:50,overcast clouds,0,0
218,Kommunar,59.6206,30.39,1.0,84,20,4.47,RU,2021-01-16 01:09:50,few clouds,0,0
219,Antofagasta,-23.65,-70.4,64.4,77,20,9.22,CL,2021-01-16 01:07:20,few clouds,0,0
220,Mamburao,13.25,120.6667,81.9,65,2,8.57,PH,2021-01-16 01:09:50,clear sky,0,0
221,Agucadoura,41.4318,-8.7804,44.01,100,20,2.3,PT,2021-01-16 01:09:50,few clouds,0,0
222,Clyde River,70.4692,-68.5914,-0.4,92,90,2.3,CA,2021-01-16 01:09:43,overcast clouds,0,0
223,Hasaki,35.7333,140.8333,48.2,87,20,3.44,JP,2021-01-16 01:09:50,few clouds,0,0
224,Raudeberg,61.9875,5.1352,30.2,69,0,16.11,NO,2021-01-16 01:09:51,clear sky,0,0
225,Srednekolymsk,67.45,153.6833,-32.94,80,13,3.0,RU,2021-01-16 01:09:51,few clouds,0,0
226,Verkhnevilyuysk,63.4453,120.3167,-38.34,81,100,4.07,RU,2021-01-16 01:09:51,overcast clouds,0,0
227,Mazeikiai,56.3167,22.3333,14.74,97,99,4.59,LT,2021-01-16 01:09:51,overcast clouds,0,0
228,Kununurra,-15.7667,128.7333,91.4,66,37,5.75,AU,2021-01-16 01:06:27,scattered clouds,0,0
229,Sheridan,44.8333,-106.9173,37.99,48,90,8.05,US,2021-01-16 01:08:13,overcast clouds,0,0
230,Ambon,-3.6954,128.1814,86.0,74,20,5.75,ID,2021-01-16 01:09:51,few clouds,0,0
231,Mogapi,-22.323,27.8349,71.22,87,98,5.03,BW,2021-01-16 01:09:51,overcast clouds,0,0
232,Port Augusta,-32.5,137.7667,68.0,48,75,17.27,AU,2021-01-16 01:09:51,broken clouds,0,0
233,Buchanan,5.8808,-10.0467,77.0,94,40,6.73,LR,2021-01-16 01:09:51,scattered clouds,0,0
234,Husavik,66.0449,-17.3389,41.0,65,90,10.36,IS,2021-01-16 01:09:51,moderate rain,0,0
235,Bosaso,11.2842,49.1816,73.38,74,23,1.61,SO,2021-01-16 01:09:52,few clouds,0,0
236,Salalah,17.0151,54.0924,73.4,17,0,11.5,OM,2021-01-16 01:09:52,clear sky,0,0
237,Kavieng,-2.5744,150.7967,76.12,87,100,9.6,PG,2021-01-16 01:09:52,moderate rain,0,0
238,Kampene,-3.6,26.6667,65.98,93,99,1.32,CD,2021-01-16 01:09:52,overcast clouds,0,0
239,Broome,42.2506,-75.833,39.0,93,90,19.57,US,2021-01-16 01:09:52,overcast clouds,0,0
240,Chicama,-7.8447,-79.1469,72.95,71,97,3.8,PE,2021-01-16 01:09:52,overcast clouds,0,0
241,Khandyga,62.6667,135.6,-47.16,76,56,0.87,RU,2021-01-16 01:09:52,broken clouds,0,0
242,Magadan,59.5667,150.8,-14.55,76,47,7.58,RU,2021-01-16 01:09:52,scattered clouds,0,0
243,Auki,-8.7676,160.7034,82.99,78,100,5.86,SB,2021-01-16 01:09:53,moderate rain,0,0
244,Flinders,-34.5833,150.8552,71.01,40,0,5.01,AU,2021-01-16 01:09:53,clear sky,0,0
245,Sergeyevka,53.88,67.4158,13.19,93,100,7.83,KZ,2021-01-16 01:09:53,overcast clouds,0,0
246,Cayenne,4.9333,-52.3333,77.0,100,75,12.68,GF,2021-01-16 01:09:53,broken clouds,0,0
247,Mosquera,4.7059,-74.2302,57.2,82,20,5.75,CO,2021-01-16 01:09:53,few clouds,0,0
248,Leningradskiy,69.3833,178.4167,-12.03,89,100,7.81,RU,2021-01-16 01:09:53,overcast clouds,0,0
249,Aras,42.5617,-2.356,44.6,65,0,14.97,ES,2021-01-16 01:09:53,clear sky,0,0
250,Chuy,-33.6971,-53.4616,72.54,84,100,13.47,UY,2021-01-16 01:09:53,overcast clouds,0,0
251,Marawi,7.9986,124.2928,81.0,82,51,3.0,PH,2021-01-16 01:09:53,broken clouds,0,0
252,Lebu,-37.6167,-73.65,56.71,79,0,14.0,CL,2021-01-16 01:09:54,clear sky,0,0
253,Flin Flon,54.7682,-101.865,6.8,85,75,8.05,CA,2021-01-16 01:09:54,broken clouds,0,0
254,Amudat,1.95,34.95,68.05,60,26,4.23,UG,2021-01-16 01:09:54,scattered clouds,0,0
255,Ialibu,-6.2821,143.9935,73.18,57,93,2.73,PG,2021-01-16 01:09:54,overcast clouds,0,0
256,Mocuba,-16.8392,36.9856,75.67,95,100,1.99,MZ,2021-01-16 01:09:54,overcast clouds,0,0
257,Hithadhoo,-0.6,73.0833,81.61,77,65,14.99,MV,2021-01-16 01:09:54,broken clouds,0,0
258,Tazmalt,36.3868,4.3989,42.03,77,41,1.97,DZ,2021-01-16 01:09:54,scattered clouds,0,0
259,Lompoc,34.6391,-120.4579,66.99,52,100,5.75,US,2021-01-16 01:09:54,overcast clouds,0,0
260,Homer,59.6425,-151.5483,36.0,80,1,4.61,US,2021-01-16 01:09:12,clear sky,0,0
261,Saldanha,-33.0117,17.9442,62.6,88,0,3.44,ZA,2021-01-16 01:09:54,clear sky,0,0
262,Chapais,49.7834,-74.8492,26.6,80,90,12.66,CA,2021-01-16 01:09:54,overcast clouds,0,0
263,Waipawa,-41.4122,175.5153,73.4,68,75,17.27,NZ,2021-01-16 01:09:55,broken clouds,0,0
264,Port Lincoln,-34.7333,135.8667,61.95,54,21,12.75,AU,2021-01-16 01:07:10,few clouds,0,0
265,Chernyakhiv,50.4565,28.6702,3.02,94,34,7.49,UA,2021-01-16 01:09:55,scattered clouds,0,0
266,Hofn,64.2539,-15.2082,40.73,92,100,25.3,IS,2021-01-16 01:09:55,moderate rain,0,0
267,Verkhnyaya Inta,65.9811,60.3094,-5.78,92,100,2.73,RU,2021-01-16 01:09:55,light snow,0,0
268,Tonj,7.2737,28.6822,69.67,24,65,5.73,SS,2021-01-16 01:09:55,broken clouds,0,0
269,Tomatlan,19.9333,-105.25,73.98,43,88,2.86,MX,2021-01-16 01:09:55,overcast clouds,0,0
270,Wajir,1.7471,40.0573,76.39,70,0,13.87,KE,2021-01-16 01:09:55,clear sky,0,0
271,Petropavlovsk-Kamchatskiy,53.0452,158.6483,6.8,66,100,4.47,RU,2021-01-16 01:08:50,overcast clouds,0,0
272,Nome,64.5011,-165.4064,21.2,73,1,6.02,US,2021-01-16 01:09:55,clear sky,0,0
273,Shingu,33.7333,135.9833,59.0,63,75,4.61,JP,2021-01-16 01:09:55,broken clouds,0,0
274,Russellville,35.2784,-93.1338,39.0,65,75,19.57,US,2021-01-16 01:06:49,broken clouds,0,0
275,Sao Filipe,14.8961,-24.4956,72.54,70,100,13.2,CV,2021-01-16 01:09:56,overcast clouds,0,0
276,Panaba,21.2833,-88.2667,67.78,79,83,6.73,MX,2021-01-16 01:09:56,broken clouds,0,0
277,Victoria,22.2855,114.1577,66.0,49,83,1.01,HK,2021-01-16 01:05:33,broken clouds,0,0
278,Poum,-20.2333,164.0167,82.99,76,100,7.56,NC,2021-01-16 01:09:56,light rain,0,0
279,Sandanski,41.5667,23.2833,25.0,81,100,1.01,BG,2021-01-16 01:09:56,overcast clouds,0,0
280,Matcha,54.6335,42.3501,11.46,96,100,11.45,RU,2021-01-16 01:09:56,snow,0,0
281,Sikeston,36.8767,-89.5879,33.8,93,90,19.57,US,2021-01-16 01:09:56,light snow,0,0
282,Edd,13.9297,41.6925,74.61,47,0,10.4,ER,2021-01-16 01:09:56,clear sky,0,0
283,Luderitz,-26.6481,15.1594,63.27,81,0,10.69,NA,2021-01-16 01:09:56,clear sky,0,0
284,Haines Junction,60.7522,-137.5108,26.6,86,90,1.68,CA,2021-01-16 01:09:57,light snow,0,0
285,Lodwar,3.1191,35.5973,80.56,45,0,5.88,KE,2021-01-16 01:09:57,clear sky,0,0
286,Vila Velha,-20.3297,-40.2925,77.0,83,40,4.61,BR,2021-01-16 01:09:57,light rain,0,0
287,Asosa,10.0667,34.5333,63.09,30,3,5.91,ET,2021-01-16 01:09:57,clear sky,0,0
288,Te Anau,-45.4167,167.7167,74.19,34,16,4.63,NZ,2021-01-16 01:09:57,few clouds,0,0
289,Ndele,8.4109,20.6473,69.58,25,2,4.88,CF,2021-01-16 01:09:57,clear sky,0,0
290,Lata,40.1629,-8.3327,39.99,91,0,1.01,PT,2021-01-16 01:09:57,clear sky,0,0
291,Ponta Delgada,37.7333,-25.6667,61.0,94,75,13.8,PT,2021-01-16 01:09:57,light rain,0,0
292,Eureka,40.8021,-124.1637,55.0,87,86,3.0,US,2021-01-16 01:09:57,overcast clouds,0,0
293,Kulevcha,46.0303,29.9361,22.78,90,3,2.57,UA,2021-01-16 01:09:58,clear sky,0,0
294,Abbeville,50.1,1.8333,32.0,93,90,3.44,FR,2021-01-16 01:09:58,overcast clouds,0,0
295,Twin Falls,42.3505,-114.6445,36.0,80,90,8.05,US,2021-01-16 01:09:58,light snow,0,0
296,San Andres,12.5847,-81.7006,80.6,74,40,9.22,CO,2021-01-16 01:09:58,scattered clouds,0,0
297,Aketi,2.7388,23.7833,71.4,75,76,1.25,CD,2021-01-16 01:09:58,broken clouds,0,0
298,Vieste,41.8825,16.175,39.2,87,20,8.05,IT,2021-01-16 01:09:58,few clouds,0,0
299,Pakxe,15.1167,105.7833,64.4,88,0,2.3,LA,2021-01-16 01:09:58,clear sky,0,0
300,Yazoo City,32.8551,-90.4056,46.4,39,40,3.44,US,2021-01-16 01:09:58,scattered clouds,0,0
301,Hovd,48.0056,91.6419,-5.28,71,0,0.22,MN,2021-01-16 01:09:50,clear sky,0,0
302,Mga,59.75,31.0667,1.0,39,32,3.27,RU,2021-01-16 01:09:58,scattered clouds,0,0
303,Margate,51.3813,1.3862,35.01,77,100,1.01,GB,2021-01-16 01:09:58,overcast clouds,0,0
304,Xining,36.6167,101.7667,10.85,90,100,1.19,CN,2021-01-16 01:09:59,overcast clouds,0,0
305,Huadian,42.9633,126.7478,-3.41,88,14,4.97,CN,2021-01-16 01:09:59,few clouds,0,0
306,Camacha,33.0833,-16.3333,59.0,72,40,11.5,PT,2021-01-16 01:09:59,scattered clouds,0,0
307,Winchester,51.0651,-1.3187,41.0,81,90,12.66,GB,2021-01-16 01:05:32,overcast clouds,0,0
308,Basco,20.4487,121.9702,73.69,79,60,28.43,PH,2021-01-16 01:09:59,light rain,0,0
309,Sabzevar,36.2126,57.6819,42.03,50,0,3.78,IR,2021-01-16 01:09:59,clear sky,0,0
310,Sur,22.5667,59.5289,64.17,58,0,2.13,OM,2021-01-16 01:09:59,clear sky,0,0
311,Yizheng,24.6706,103.4296,43.05,86,99,1.88,CN,2021-01-16 01:09:59,overcast clouds,0,0
312,Baijiantan,45.6333,85.1833,-3.73,88,24,3.2,CN,2021-01-16 01:09:59,few clouds,0,0
313,Celestun,20.8667,-90.4,72.21,74,100,10.94,MX,2021-01-16 01:09:59,overcast clouds,0,0
314,Bathsheba,13.2167,-59.5167,78.8,65,20,19.57,BB,2021-01-16 01:09:59,few clouds,0,0
315,Jumla,29.2747,82.1838,40.23,49,0,4.65,NP,2021-01-16 01:09:59,clear sky,0,0
316,Wageningen,51.9667,5.6667,35.01,93,90,2.3,NL,2021-01-16 01:09:59,overcast clouds,0,0
317,West Wendover,40.7391,-114.0733,35.6,51,1,1.57,US,2021-01-16 01:10:00,clear sky,0,0
318,Hilton Head Island,32.2163,-80.7526,53.01,93,75,5.75,US,2021-01-16 01:10:00,broken clouds,0,0
319,Yaqui,27.3667,-110.1667,69.8,32,1,4.61,MX,2021-01-16 01:10:00,clear sky,0,0
320,Diego De Almagro,-26.3667,-70.05,58.03,70,0,3.42,CL,2021-01-16 01:10:00,clear sky,0,0
321,Magnor,59.9511,12.1996,9.0,84,0,3.44,SE,2021-01-16 01:10:00,clear sky,0,0
322,Anicuns,-16.4611,-49.9617,69.57,94,100,2.89,BR,2021-01-16 01:10:00,overcast clouds,0,0
323,Ode,7.7899,5.7117,70.86,81,2,4.5,NG,2021-01-16 01:10:01,clear sky,0,0
324,Bogalusa,30.791,-89.8487,45.0,42,1,3.44,US,2021-01-16 01:10:01,clear sky,0,0
325,Atar,20.5169,-13.0499,63.36,25,100,14.18,MR,2021-01-16 01:10:01,overcast clouds,0,0
326,Adiake,5.2863,-3.304,80.6,89,20,4.61,CI,2021-01-16 01:10:01,few clouds,0,0
327,Touros,-5.1989,-35.4608,78.8,83,40,9.22,BR,2021-01-16 01:10:01,scattered clouds,0,0
328,Bestobe,52.4994,73.0975,10.54,87,100,9.66,KZ,2021-01-16 01:10:02,overcast clouds,0,0
329,Thunder Bay,48.4001,-89.3168,32.0,86,90,10.36,CA,2021-01-16 01:05:27,light snow,0,0
330,The Pas,53.8251,-101.2541,5.0,85,75,3.44,CA,2021-01-16 01:10:02,broken clouds,0,0
331,Rocha,-34.4833,-54.3333,71.06,84,100,15.55,UY,2021-01-16 01:09:05,moderate rain,0,0
332,Katete,-0.7818,29.7544,60.87,82,0,3.02,UG,2021-01-16 01:10:02,clear sky,0,0
333,Gazojak,41.1875,61.4036,40.64,63,0,10.2,TM,2021-01-16 01:10:02,clear sky,0,0
334,Tuatapere,-46.1333,167.6833,73.0,63,13,8.99,NZ,2021-01-16 01:10:02,few clouds,0,0
335,Port Hedland,-20.3167,118.5667,93.2,49,82,11.5,AU,2021-01-16 01:10:02,broken clouds,0,0
336,Gayeri,12.6497,0.4931,68.81,22,17,8.32,BF,2021-01-16 01:10:03,few clouds,0,0
337,Praia Da Vitoria,38.7333,-27.0667,59.0,88,20,8.5,PT,2021-01-16 01:10:03,few clouds,0,0
338,Coruripe,-10.1256,-36.1756,76.75,80,37,9.93,BR,2021-01-16 01:07:36,scattered clouds,0,0
339,Mantua,45.1667,10.7833,34.0,78,97,1.99,IT,2021-01-16 01:10:03,overcast clouds,0,0
340,Sangar,63.9242,127.4739,-47.79,77,84,2.42,RU,2021-01-16 01:10:04,broken clouds,0,0
341,Manakara,-22.1333,48.0167,76.62,92,93,2.51,MG,2021-01-16 01:10:04,overcast clouds,0,0
342,Mackay,-21.15,149.2,89.01,65,98,8.05,AU,2021-01-16 01:10:04,overcast clouds,0,0
343,San Policarpo,12.1791,125.5072,82.31,82,31,9.24,PH,2021-01-16 01:10:05,moderate rain,0,0
344,Boende,-0.2167,20.8667,71.67,84,98,3.13,CD,2021-01-16 01:10:05,overcast clouds,0,0
345,Huari,-9.3333,-77.2333,46.69,78,99,0.96,PE,2021-01-16 01:10:05,moderate rain,0,0
346,Aklavik,68.2191,-135.0107,-9.4,84,100,9.22,CA,2021-01-16 01:10:05,overcast clouds,0,0
347,Madang,-5.2246,145.7966,86.83,63,100,3.62,PG,2021-01-16 01:10:05,overcast clouds,0,0
348,Vestmannaeyjar,63.4427,-20.2734,41.61,83,100,14.7,IS,2021-01-16 01:10:06,overcast clouds,0,0
349,Ginda,30.6945,78.4932,45.54,39,0,7.4,IN,2021-01-16 01:10:06,clear sky,0,0
350,Cam Ranh,11.9214,109.1591,69.8,78,20,5.75,VN,2021-01-16 01:10:06,few clouds,0,0
351,Bambous Virieux,-20.3428,57.7575,80.01,94,40,4.61,MU,2021-01-16 01:10:06,scattered clouds,0,0
352,Ovalle,-30.5983,-71.2003,60.89,60,0,2.59,CL,2021-01-16 01:10:06,clear sky,0,0
353,Primorsko-Akhtarsk,46.0497,38.1747,31.28,93,4,18.57,RU,2021-01-16 01:10:06,clear sky,0,0
354,Pangnirtung,66.1451,-65.7125,5.63,89,100,3.47,CA,2021-01-16 01:10:06,light snow,0,0
355,Batagay,67.6333,134.6333,-34.89,81,100,1.52,RU,2021-01-16 01:10:07,overcast clouds,0,0
356,Norman Wells,65.282,-126.8329,3.2,92,90,2.3,CA,2021-01-16 01:10:07,light snow,0,0
357,Narsaq,60.9167,-46.05,23.0,50,90,5.75,GL,2021-01-16 01:10:07,overcast clouds,0,0
358,Sassandra,4.95,-6.0833,77.49,87,0,7.18,CI,2021-01-16 01:10:07,clear sky,0,0
359,Jingdezhen,29.2947,117.2079,46.42,65,44,6.46,CN,2021-01-16 01:10:07,scattered clouds,0,0
360,Terrace,54.5163,-128.6035,39.2,87,75,12.66,CA,2021-01-16 01:10:07,light snow,0,0
361,Uzhur,55.3036,89.8339,0.12,89,100,3.83,RU,2021-01-16 01:10:07,overcast clouds,0,0
362,Luanda,-8.8368,13.2343,77.0,83,75,2.3,AO,2021-01-16 01:06:12,broken clouds,0,0
363,Roma,43.2128,-75.4557,37.4,75,90,13.8,US,2021-01-16 01:07:02,overcast clouds,0,0
364,Jiaonan,35.8786,119.9753,26.01,79,0,2.24,CN,2021-01-16 01:10:08,clear sky,0,0
365,Pevek,69.7008,170.3133,-8.09,86,100,3.4,RU,2021-01-16 01:10:08,overcast clouds,0,0
366,Teahupoo,-17.8333,-149.2667,86.0,62,40,5.75,PF,2021-01-16 01:10:08,light rain,0,0
367,Taksimo,56.3444,114.8794,-18.08,80,100,1.52,RU,2021-01-16 01:10:08,overcast clouds,0,0
368,Korla,41.7597,86.1469,14.81,83,0,1.79,CN,2021-01-16 01:10:08,clear sky,0,0
369,Tagusao,9.1924,117.8141,81.88,74,87,3.71,PH,2021-01-16 01:10:08,overcast clouds,0,0
370,Half Moon Bay,37.4636,-122.4286,66.2,67,75,5.75,US,2021-01-16 01:10:08,broken clouds,0,0
371,San Pedro,14.35,121.0167,82.99,74,20,3.44,PH,2021-01-16 01:10:09,few clouds,0,0
372,Zacatepec,18.65,-99.2,79.0,35,90,0.81,MX,2021-01-16 01:10:09,overcast clouds,0,0
373,Okhotsk,59.3833,143.3,-13.45,88,100,9.55,RU,2021-01-16 01:10:09,overcast clouds,0,0
374,Kaitangata,-46.2817,169.8464,64.99,76,16,13.0,NZ,2021-01-16 01:10:09,few clouds,0,0
375,Weligama,5.9667,80.4167,75.6,82,100,3.13,LK,2021-01-16 01:10:09,light rain,0,0
376,Freeport,40.6576,-73.5832,46.0,81,90,17.27,US,2021-01-16 01:09:35,light rain,0,0
377,Saint-Francois,46.4154,3.9054,32.0,80,90,5.75,FR,2021-01-16 01:10:09,overcast clouds,0,0
378,Sibolga,1.7427,98.7792,78.48,74,25,3.27,ID,2021-01-16 01:09:24,scattered clouds,0,0
379,Ganzhou,28.8184,115.4327,46.26,56,100,9.6,CN,2021-01-16 01:10:09,overcast clouds,0,0
380,Eirunepe,-6.6603,-69.8736,75.0,92,92,1.41,BR,2021-01-16 01:10:10,light rain,0,0
381,Isangel,-19.55,169.2667,83.86,75,100,11.59,VU,2021-01-16 01:10:10,overcast clouds,0,0
382,Kasama,-10.2129,31.1808,60.71,98,100,0.94,ZM,2021-01-16 01:10:10,overcast clouds,0,0
383,Grand Gaube,-20.0064,57.6608,80.01,84,98,4.0,MU,2021-01-16 01:10:10,overcast clouds,0,0
384,Banjar,-8.19,114.9675,75.2,100,75,3.44,ID,2021-01-16 01:10:10,broken clouds,0,0
385,Salina,38.8403,-97.6114,35.6,55,90,23.02,US,2021-01-16 01:10:05,overcast clouds,0,0
386,Gambela,8.25,34.5833,73.98,33,0,2.8,ET,2021-01-16 01:10:10,clear sky,0,0
387,Vangaindrano,-23.35,47.6,76.64,92,16,3.65,MG,2021-01-16 01:10:10,few clouds,0,0
388,Teguldet,57.3064,88.1667,-3.39,92,100,7.96,RU,2021-01-16 01:10:11,light snow,0,0
389,Caluquembe,-13.7833,14.6833,55.04,74,22,5.95,AO,2021-01-16 01:10:11,few clouds,0,0
390,Yarada,17.65,83.2667,68.0,100,0,2.3,IN,2021-01-16 01:10:11,mist,0,0
391,Guane,22.2025,-84.0875,69.96,91,100,5.03,CU,2021-01-16 01:10:11,overcast clouds,0,0
392,Eregli,37.5133,34.0467,39.18,88,100,4.03,TR,2021-01-16 01:10:11,overcast clouds,0,0
393,Fortuna,40.5982,-124.1573,57.0,94,1,3.11,US,2021-01-16 01:10:11,clear sky,0,0
394,Nantucket,41.2835,-70.0995,39.99,75,1,5.75,US,2021-01-16 01:08:31,clear sky,0,0
395,Muros,42.7762,-9.0603,37.99,93,26,5.75,ES,2021-01-16 01:10:12,scattered clouds,0,0
396,Rapar,23.5667,70.6333,61.92,37,0,3.98,IN,2021-01-16 01:10:12,clear sky,0,0
397,Batticaloa,7.7102,81.6924,77.27,83,63,5.26,LK,2021-01-16 01:10:12,broken clouds,0,0
398,Eyl,7.9803,49.8164,72.12,82,33,12.8,SO,2021-01-16 01:10:12,scattered clouds,0,0
399,Chengde,40.9725,117.9361,5.16,71,0,6.04,CN,2021-01-16 01:05:14,clear sky,0,0
400,Tarakan,3.3,117.6333,80.6,89,40,5.64,ID,2021-01-16 01:10:12,scattered clouds,0,0
401,Limon,10.0,-83.0333,78.8,78,0,0.36,CR,2021-01-16 01:10:13,clear sky,0,0
402,Mehamn,71.0357,27.8492,36.5,81,100,22.75,NO,2021-01-16 01:10:13,overcast clouds,0,0
403,Micheweni,-4.9667,39.8333,78.75,83,17,8.61,TZ,2021-01-16 01:10:13,few clouds,0,0
404,Cotonou,6.3654,2.4183,80.6,89,40,12.66,BJ,2021-01-16 01:05:19,scattered clouds,0,0
405,Hirara,24.8,125.2833,69.8,77,40,16.11,JP,2021-01-16 01:10:13,scattered clouds,0,0
406,Alofi,-19.0595,-169.9187,87.8,66,75,6.91,NU,2021-01-16 01:10:13,broken clouds,0,0
407,Rozvadiv,49.5,23.6167,15.01,72,0,15.66,UA,2021-01-16 01:10:14,light snow,0,0
408,Oeiras,-7.0253,-42.1311,78.44,70,100,2.17,BR,2021-01-16 01:10:14,overcast clouds,0,0
409,Aguimes,27.9054,-15.4461,62.6,55,75,14.97,ES,2021-01-16 01:10:14,broken clouds,0,0
410,Mwanza,-2.5167,32.9,69.85,75,100,8.14,TZ,2021-01-16 01:10:14,light rain,0,0
411,Donja Mahala,45.0469,18.6664,28.99,93,0,8.05,BA,2021-01-16 01:10:14,clear sky,0,0
412,Tailai,46.3833,123.4,-3.77,80,0,7.02,CN,2021-01-16 01:10:14,clear sky,0,0
413,Ledec,49.9745,15.5937,28.4,86,90,8.05,CZ,2021-01-16 01:10:14,light snow,0,0
414,Hobbs,32.7026,-103.136,43.0,38,1,8.05,US,2021-01-16 01:10:14,clear sky,0,0
415,Margherita,27.2833,95.6833,57.2,94,90,0.51,IN,2021-01-16 01:10:15,fog,0,0
416,Bardiyah,31.7561,25.0865,56.48,75,0,18.59,LY,2021-01-16 01:10:15,clear sky,0,0
417,Baraki Barak,33.9675,68.9486,31.55,62,0,2.28,AF,2021-01-16 01:10:15,clear sky,0,0
418,Itarema,-2.9248,-39.9167,79.36,80,9,14.2,BR,2021-01-16 01:10:15,clear sky,0,0
419,Chekalin,54.0969,36.245,10.4,85,100,6.71,RU,2021-01-16 01:10:15,overcast clouds,0,0
420,Kaniama,-7.5667,24.1833,62.04,95,83,2.13,CD,2021-01-16 01:10:16,broken clouds,0,0
421,Vercheres,45.7834,-73.3492,32.0,74,100,3.44,CA,2021-01-16 01:06:22,overcast clouds,0,0
422,Kruisfontein,-34.0033,24.7314,64.99,87,100,3.0,ZA,2021-01-16 01:10:16,light rain,0,0
423,Mareeba,-17.0,145.4333,86.0,61,40,14.97,AU,2021-01-16 01:10:16,scattered clouds,0,0
424,Soyo,-6.1349,12.3689,78.28,78,100,6.98,AO,2021-01-16 01:10:16,overcast clouds,0,0
425,Dogondoutchi,13.6393,4.0287,69.51,21,0,8.43,NE,2021-01-16 01:08:11,clear sky,0,0
426,Humberto De Campos,-2.5983,-43.4611,76.66,85,94,5.55,BR,2021-01-16 01:10:16,overcast clouds,0,0
427,Enshi,30.3,109.4833,45.48,56,100,5.93,CN,2021-01-16 01:10:16,overcast clouds,0,0
428,Kamenka,51.3223,42.7678,17.01,92,100,14.45,RU,2021-01-16 01:10:16,light snow,0,0
429,Alice Springs,-23.7,133.8833,80.6,19,0,21.85,AU,2021-01-16 01:10:17,clear sky,0,0
430,Namibe,-15.1961,12.1522,72.95,69,0,6.93,AO,2021-01-16 01:10:17,clear sky,0,0
431,Namatanai,-3.6667,152.4333,84.25,69,100,5.28,PG,2021-01-16 01:10:17,light rain,0,0
432,Pulivendla,14.4167,78.2333,68.58,75,99,3.98,IN,2021-01-16 01:10:17,overcast clouds,0,0
433,Abu Samrah,35.3029,37.1841,48.7,83,0,6.6,SY,2021-01-16 01:10:17,clear sky,0,0
434,Cidreira,-30.1811,-50.2056,76.75,82,30,19.69,BR,2021-01-16 01:10:17,scattered clouds,0,0
435,Baker City,44.7749,-117.8344,35.6,69,90,4.61,US,2021-01-16 01:08:57,overcast clouds,0,0
436,Taltal,-25.4,-70.4833,63.05,75,10,3.0,CL,2021-01-16 01:10:17,clear sky,0,0
437,Abalak,58.1286,68.5944,9.97,96,100,6.08,RU,2021-01-16 01:10:17,overcast clouds,0,0
438,El Reno,35.5323,-97.955,37.99,51,40,12.66,US,2021-01-16 01:07:04,scattered clouds,0,0
439,Ende,-8.8432,121.6623,81.59,76,66,4.63,ID,2021-01-16 01:10:17,light rain,0,0
440,Houma,29.5958,-90.7195,50.0,61,1,9.22,US,2021-01-16 01:10:17,clear sky,0,0
441,Mandalgovi,45.7625,106.2708,-8.36,80,0,13.02,MN,2021-01-16 01:10:18,clear sky,0,0
442,Henderson,36.0397,-114.9819,64.4,14,1,5.75,US,2021-01-16 01:10:18,clear sky,0,0
443,Doha,25.2867,51.5333,60.8,77,0,3.44,QA,2021-01-16 01:10:18,clear sky,0,0
444,Shymkent,42.3,69.6,35.6,75,0,6.71,KZ,2021-01-16 01:10:18,clear sky,0,0
445,Saint-Augustin,51.226,-58.6502,22.48,94,0,6.93,CA,2021-01-16 01:09:36,clear sky,0,0
446,Lagoa,39.05,-27.9833,60.42,89,16,13.62,PT,2021-01-16 01:10:18,few clouds,0,0
447,The Valley,18.217,-63.0578,78.01,78,20,5.75,AI,2021-01-16 01:10:18,few clouds,0,0
448,Joensuu,62.6012,29.7632,-0.99,92,90,1.14,FI,2021-01-16 01:10:19,fog,0,0
449,Rock Springs,41.5875,-109.2029,37.4,48,1,25.32,US,2021-01-16 01:09:31,clear sky,0,0
450,Nouadhibou,20.931,-17.0347,60.8,55,0,20.71,MR,2021-01-16 01:10:19,clear sky,0,0
451,Katsuura,35.1333,140.3,61.0,66,20,2.3,JP,2021-01-16 01:10:19,few clouds,0,0
452,Sabha,27.0377,14.4283,46.81,52,0,6.76,LY,2021-01-16 01:10:19,clear sky,0,0
453,Tamiahua,21.2667,-97.45,65.59,75,95,10.71,MX,2021-01-16 01:10:19,overcast clouds,0,0
454,Dzaoudzi,-12.7887,45.2699,78.8,83,0,2.3,YT,2021-01-16 01:10:19,clear sky,0,0
455,Edson,53.5835,-116.4356,41.0,38,1,11.5,CA,2021-01-16 01:10:19,clear sky,0,0
456,Sibu,2.3,111.8167,73.4,100,40,3.44,MY,2021-01-16 01:05:37,scattered clouds,0,0
457,Aktau,43.65,51.2,37.4,81,90,11.18,KZ,2021-01-16 01:10:19,overcast clouds,0,0
458,Ust-Nera,64.5667,143.2,-24.74,76,100,2.06,RU,2021-01-16 01:10:19,overcast clouds,0,0
459,Fairbanks,64.8378,-147.7164,14.0,79,75,2.91,US,2021-01-16 01:10:03,broken clouds,0,0
460,Manono,-7.3,27.4167,66.04,94,96,2.17,CD,2021-01-16 01:10:20,overcast clouds,0,0
461,Zapolyarnyy,69.4154,30.8136,33.8,93,90,12.66,RU,2021-01-16 01:10:20,light snow,0,0
462,Pavlodar,52.3,76.95,-9.4,70,0,13.42,KZ,2021-01-16 01:10:20,clear sky,0,0
463,Padang,-0.9492,100.3543,79.16,63,100,3.0,ID,2021-01-16 01:10:20,overcast clouds,0,0
464,Vendychany,48.6118,27.7932,17.01,83,97,7.67,UA,2021-01-16 01:10:20,overcast clouds,0,0
465,Matagami,49.7502,-77.6328,28.4,93,90,10.36,CA,2021-01-16 01:10:21,overcast clouds,0,0
466,Bubaque,11.2833,-15.8333,77.22,72,100,10.11,GW,2021-01-16 01:10:21,overcast clouds,0,0
467,Suzaka,36.65,138.3167,37.0,81,97,3.51,JP,2021-01-16 01:10:21,overcast clouds,0,0
468,Monroe,43.1501,-77.6831,41.0,87,90,9.22,US,2021-01-16 01:09:30,light rain,0,0
469,Sinnamary,5.3833,-52.95,77.29,88,37,12.95,GF,2021-01-16 01:10:21,scattered clouds,0,0
470,Vila Franca Do Campo,37.7167,-25.4333,61.0,94,75,13.8,PT,2021-01-16 01:10:21,light rain,0,0
471,San Juan,-31.5375,-68.5364,86.25,37,14,13.11,AR,2021-01-16 01:09:27,light rain,0,0
472,Valparaiso,-33.0393,-71.6273,62.6,59,40,4.61,CL,2021-01-16 01:10:21,scattered clouds,0,0
473,Barong,18.0576,120.734,77.0,69,20,3.44,PH,2021-01-16 01:10:21,few clouds,0,0
474,Myanaung,18.2833,95.3167,60.55,82,0,2.26,MM,2021-01-16 01:10:21,clear sky,0,0
475,Champerico,14.3,-91.9167,68.0,97,96,8.25,GT,2021-01-16 01:10:22,overcast clouds,0,0
476,Lixourion,38.2019,20.4314,50.32,85,100,11.48,GR,2021-01-16 01:10:22,overcast clouds,0,0
477,Berbera,10.4396,45.0143,72.48,77,97,3.85,SO,2021-01-16 01:10:22,overcast clouds,0,0
478,Biak,-0.9131,122.8766,81.45,75,100,2.21,ID,2021-01-16 01:10:22,overcast clouds,0,0
479,Madingou,-4.1536,13.55,73.13,89,100,2.04,CG,2021-01-16 01:10:22,overcast clouds,0,0
480,Trelew,-43.249,-65.3051,63.75,63,100,20.94,AR,2021-01-16 01:10:22,overcast clouds,0,0
481,Mimongo,-1.6195,11.6068,68.14,93,98,1.3,GA,2021-01-16 01:10:22,overcast clouds,0,0
482,San Agustin,20.5333,-103.4667,73.4,11,75,6.91,MX,2021-01-16 01:10:22,broken clouds,0,0
483,Rapid Valley,44.0625,-103.1463,30.2,40,1,11.5,US,2021-01-16 01:10:23,clear sky,0,0
484,Linxia,35.6003,103.2064,14.9,91,97,1.52,CN,2021-01-16 01:10:23,overcast clouds,0,0
485,Tulum,20.2167,-87.4667,77.0,78,75,6.91,MX,2021-01-16 01:10:23,broken clouds,0,0
486,Santa Fe,-31.6333,-60.7,71.01,90,84,1.01,AR,2021-01-16 01:08:45,broken clouds,0,0
487,Trinidad,-14.8333,-64.9,76.21,93,100,3.62,BO,2021-01-16 01:10:23,overcast clouds,0,0
488,Oistins,13.0667,-59.5333,78.8,65,20,19.57,BB,2021-01-16 01:10:23,few clouds,0,0
489,Vilhena,-12.7406,-60.1458,69.93,89,100,2.84,BR,2021-01-16 01:10:07,moderate rain,0,0
490,Marsh Harbour,26.5412,-77.0636,74.52,81,39,12.01,BS,2021-01-16 01:10:23,scattered clouds,0,0
491,Zhangye,38.9342,100.4517,10.99,81,100,3.98,CN,2021-01-16 01:10:23,light snow,0,0
492,Azul,-36.777,-59.8585,75.0,78,0,3.0,AR,2021-01-16 01:10:23,clear sky,0,0
493,Beyneu,45.3167,55.2,37.58,86,81,18.23,KZ,2021-01-16 01:10:24,broken clouds,0,0
494,Nokaneng,-19.6667,22.2667,70.79,91,100,7.16,BW,2021-01-16 01:10:24,light rain,0,0
495,Pacific Grove,36.6177,-121.9166,66.0,59,1,3.44,US,2021-01-16 01:08:45,clear sky,0,0
496,Piracuruca,-3.9281,-41.7092,76.59,81,85,6.4,BR,2021-01-16 01:10:24,overcast clouds,0,0
497,Comodoro Rivadavia,-45.8667,-67.5,57.2,82,75,4.61,AR,2021-01-16 01:10:24,broken clouds,0,0
498,Ballina,-28.8667,153.5667,84.2,69,40,17.27,AU,2021-01-16 01:10:24,scattered clouds,0,0
499,Ibipeba,-11.6408,-42.0111,71.37,74,66,8.75,BR,2021-01-16 01:10:24,broken clouds,0,0
500,Sao Joao Da Barra,-21.6403,-41.0511,76.33,88,0,13.31,BR,2021-01-16 01:10:24,clear sky,0,0
501,Port Hawkesbury,45.6169,-61.3485,30.99,80,90,5.75,CA,2021-01-16 01:10:25,overcast clouds,0,0
502,Valley City,46.9233,-98.0032,21.2,100,90,18.41,US,2021-01-16 01:10:04,overcast clouds,0,0
503,Nefteyugansk,61.0998,72.6035,6.8,85,90,13.42,RU,2021-01-16 01:10:25,light snow,0,0
504,Doka,13.5167,35.7667,67.42,40,0,9.89,SD,2021-01-16 01:10:25,clear sky,0,0
505,Sweetwater,25.7634,-80.3731,71.6,64,75,6.91,US,2021-01-16 01:05:52,broken clouds,0,0
506,Tecoanapa,16.5167,-98.75,78.28,74,100,0.63,MX,2021-01-16 01:10:25,overcast clouds,0,0
507,Port Hardy,50.6996,-127.4199,46.4,93,40,2.3,CA,2021-01-16 01:10:25,scattered clouds,0,0
508,Torbay,47.6666,-52.7314,30.99,93,90,23.02,CA,2021-01-16 01:10:25,snow,0,0
509,Nicoya,10.1483,-85.452,80.6,65,0,16.11,CR,2021-01-16 01:10:25,clear sky,0,0
510,Prince George,53.9166,-122.753,39.2,56,1,11.5,CA,2021-01-16 01:07:51,clear sky,0,0
511,New Port Richey,28.2442,-82.7193,60.01,90,100,3.0,US,2021-01-16 01:10:25,overcast clouds,0,0
512,Hokitika,-42.7167,170.9667,67.05,65,0,7.56,NZ,2021-01-16 01:10:25,clear sky,0,0
513,Dudinka,69.4058,86.1778,-38.54,78,0,5.01,RU,2021-01-16 01:10:26,clear sky,0,0
514,Aranos,-24.1333,19.1167,72.36,74,100,8.95,NA,2021-01-16 01:10:26,light rain,0,0
515,Port-Gentil,-0.7193,8.7815,79.84,80,0,9.62,GA,2021-01-16 01:10:26,clear sky,0,0
516,Constantine,36.365,6.6147,42.8,87,75,8.05,DZ,2021-01-16 01:10:26,light rain,0,0
517,Mayor Pablo Lagerenza,-19.9309,-60.7718,79.74,76,13,7.43,PY,2021-01-16 01:10:26,few clouds,0,0
518,Volchikha,52.0333,80.3833,-1.97,84,100,12.97,RU,2021-01-16 01:10:26,overcast clouds,0,0
519,Dubreka,9.7911,-13.5233,72.91,88,0,3.0,GN,2021-01-16 01:10:27,clear sky,0,0
520,Hualmay,-11.0964,-77.6139,70.36,84,99,4.36,PE,2021-01-16 01:10:27,overcast clouds,0,0
521,Saint-Joseph,-21.3667,55.6167,77.0,83,20,3.44,RE,2021-01-16 01:10:27,few clouds,0,0
522,Bandarbeyla,9.4942,50.8122,73.26,80,31,14.05,SO,2021-01-16 01:10:27,scattered clouds,0,0
523,Asadabad,34.7824,48.1185,33.93,90,44,2.59,IR,2021-01-16 01:10:27,scattered clouds,0,0
524,Bilibino,68.0546,166.4372,-17.93,85,100,1.3,RU,2021-01-16 01:10:27,overcast clouds,0,0
525,Spirit River,55.7833,-118.8361,39.0,60,0,14.97,CA,2021-01-16 01:10:27,clear sky,0,0
526,Kutum,14.2,24.6667,49.98,45,0,5.88,SD,2021-01-16 01:10:27,clear sky,0,0
527,Atikokan,48.7555,-91.6216,29.46,98,100,4.27,CA,2021-01-16 01:10:28,overcast clouds,0,0
528,Kyzyl-Suu,42.3414,78.0056,30.04,62,0,8.46,KG,2021-01-16 01:10:28,clear sky,0,0
529,Rossosh,51.1209,38.5116,17.24,97,87,4.85,RU,2021-01-16 01:10:28,overcast clouds,0,0
530,Shahreza,32.0339,51.8794,36.81,72,0,3.47,IR,2021-01-16 01:10:28,clear sky,0,0
531,Henties Bay,-22.116,14.2845,71.01,79,71,6.46,NA,2021-01-16 01:10:28,broken clouds,0,0
532,Toropets,56.4978,31.6353,-4.58,91,100,4.81,RU,2021-01-16 01:10:28,light snow,0,0
533,Yushu,44.8,126.5333,-12.28,89,0,6.55,CN,2021-01-16 01:10:28,clear sky,0,0
534,Sakakah,29.9697,40.2064,48.2,57,0,4.61,SA,2021-01-16 01:10:28,clear sky,0,0
535,Rio Grande,-32.035,-52.0986,77.0,88,75,18.41,BR,2021-01-16 01:10:28,broken clouds,0,0
536,Paamiut,61.994,-49.6678,24.6,97,82,16.93,GL,2021-01-16 01:10:28,snow,0,0
537,Lagos,6.5833,3.75,78.12,83,51,3.22,NG,2021-01-16 01:07:02,broken clouds,0,0
538,Suifenhe,44.4,131.1667,-4.83,84,0,6.42,CN,2021-01-16 01:10:29,clear sky,0,0
539,Najran,17.4924,44.1277,55.4,41,0,4.61,SA,2021-01-16 01:10:29,clear sky,0,0
540,Genhe,50.7833,121.5167,-23.91,85,100,3.04,CN,2021-01-16 01:10:29,overcast clouds,0,0
541,Zlynka,52.4267,31.7378,0.0,85,0,8.95,RU,2021-01-16 01:10:29,clear sky,0,0
542,Yanam,16.7333,82.2167,68.0,94,20,5.75,IN,2021-01-16 01:10:29,mist,0,0
543,Bavleny,56.4,39.56,5.54,95,100,10.94,RU,2021-01-16 01:10:29,light snow,0,0
544,Tabou,4.423,-7.3528,77.72,88,7,7.7,CI,2021-01-16 01:10:30,light rain,0,0
545,Deputatskiy,69.3,139.9,-20.43,89,100,2.01,RU,2021-01-16 01:10:30,overcast clouds,0,0
546,Tual,-5.6667,132.75,84.6,74,100,7.38,ID,2021-01-16 01:10:30,overcast clouds,0,0
547,Vila,42.0304,-8.1588,42.01,100,90,6.91,PT,2021-01-16 01:10:30,mist,0,0
548,Kozhva,65.1073,57.0459,-1.17,93,100,4.61,RU,2021-01-16 01:10:30,overcast clouds,0,0
549,Dharchula,29.85,80.5333,49.96,35,0,7.65,IN,2021-01-16 01:10:30,clear sky,0,0
550,Campo Maior,-4.8278,-42.1686,79.75,66,95,4.99,BR,2021-01-16 01:10:31,overcast clouds,0,0
551,Nsoko,-27.0333,31.95,72.75,93,2,3.71,SZ,2021-01-16 01:10:31,clear sky,0,0
552,Jiuquan,39.7432,98.5174,6.57,80,2,3.22,CN,2021-01-16 01:10:31,clear sky,0,0
553,Waitati,-45.75,170.5667,68.0,84,93,11.99,NZ,2021-01-16 01:10:31,overcast clouds,0,0
554,Belmonte,-15.8631,-38.8828,75.2,88,40,2.3,BR,2021-01-16 01:10:31,scattered clouds,0,0
555,Zolotukhino,52.0842,36.3772,12.0,87,92,11.01,RU,2021-01-16 01:10:31,snow,0,0
556,Hammerfest,70.6634,23.6821,37.4,81,75,11.5,NO,2021-01-16 01:07:54,broken clouds,0,0
557,Shirokiy,49.758,129.523,-19.34,87,0,2.53,RU,2021-01-16 01:10:31,clear sky,0,0
558,Manta,-0.95,-80.7333,78.8,83,75,5.75,EC,2021-01-16 01:10:31,broken clouds,0,0
559,Winslow,35.0242,-110.6974,46.4,17,1,2.91,US,2021-01-16 01:08:06,clear sky,0,0
560,Vanimo,-2.6741,141.3028,85.08,70,100,3.24,PG,2021-01-16 01:10:31,light rain,0,0
561,Bac Lieu,9.285,105.7244,75.87,78,63,11.7,VN,2021-01-16 01:10:31,broken clouds,0,0
562,Pedernales,18.0384,-71.744,77.22,68,17,2.62,DO,2021-01-16 01:10:31,few clouds,0,0
563,Bhojudih,23.6333,86.45,51.66,47,75,4.68,IN,2021-01-16 01:10:32,broken clouds,0,0
564,Bichura,50.5881,107.6022,-3.98,86,100,5.99,RU,2021-01-16 01:10:32,overcast clouds,0,0
565,Parrita,9.5201,-84.3225,71.6,64,0,4.61,CR,2021-01-16 01:10:32,clear sky,0,0
566,Bowling Green,36.9903,-86.4436,35.6,80,90,6.91,US,2021-01-16 01:06:05,light snow,0,0
567,Kamogawa,35.1,140.1,61.0,59,0,5.99,JP,2021-01-16 01:10:32,clear sky,0,0
568,Cururupu,-1.8283,-44.8683,75.49,89,15,3.6,BR,2021-01-16 01:10:32,few clouds,0,0
569,Karratha,-20.7377,116.8463,92.59,56,31,13.82,AU,2021-01-16 01:10:32,scattered clouds,0,0
570,Lavrentiya,65.5833,-171.0,-1.84,88,100,9.66,RU,2021-01-16 01:10:32,overcast clouds,0,0
571,Noumea,-22.2763,166.4572,86.0,79,75,9.22,NC,2021-01-16 01:10:32,broken clouds,0,0
572,Kailua,21.4022,-157.7394,82.4,73,40,8.05,US,2021-01-16 01:10:33,scattered clouds,0,0
573,Hare Bay,48.8499,-54.0148,28.4,86,100,8.05,CA,2021-01-16 01:10:33,overcast clouds,0,0
574,Hambantota,6.1241,81.1185,73.4,100,90,3.44,LK,2021-01-16 01:09:48,overcast clouds,0,0
575,Suntar,62.1444,117.6319,-33.5,83,100,4.29,RU,2021-01-16 01:10:33,overcast clouds,0,0
576,Mweka,-4.85,21.5667,66.9,88,100,1.74,CD,2021-01-16 01:10:33,overcast clouds,0,0
577,Zwedru,6.0667,-8.1281,71.17,96,40,2.46,LR,2021-01-16 01:10:33,scattered clouds,0,0
578,Tyrma,50.0833,132.1667,-13.18,84,14,2.57,RU,2021-01-16 01:10:33,few clouds,0,0
579,Portland,45.5234,-122.6762,48.99,87,75,2.13,US,2021-01-16 01:10:33,broken clouds,0,0
580,Arlit,18.7369,7.3853,69.19,23,40,4.94,NE,2021-01-16 01:10:33,scattered clouds,0,0
581,Sainte-Marie,-20.8968,55.5496,77.0,83,40,3.44,RE,2021-01-16 01:10:33,scattered clouds,0,0
582,Havelock,34.8791,-76.9013,54.0,76,75,3.44,US,2021-01-16 01:10:34,broken clouds,0,0
583,Zheleznodorozhnyy,55.7503,38.0042,8.6,85,75,6.71,RU,2021-01-16 01:10:34,light snow,0,0
584,Juan Diaz,8.4667,-80.2833,82.0,97,72,11.12,PA,2021-01-16 01:10:34,broken clouds,0,0
585,Spas-Klepiki,55.1347,40.1767,9.0,79,100,4.0,RU,2021-01-16 01:10:34,snow,0,0
586,Meulaboh,4.1363,96.1285,78.28,81,12,5.59,ID,2021-01-16 01:10:34,few clouds,0,0
587,Borova,50.1763,30.1043,14.0,79,90,4.47,UA,2021-01-16 01:10:34,light snow,0,0
588,Kedrovyy,56.1667,91.8167,-0.4,71,0,11.18,RU,2021-01-16 01:10:34,clear sky,0,0
589,Rio Gallegos,-51.6226,-69.2181,53.6,76,40,11.5,AR,2021-01-16 01:09:00,scattered clouds,0,0
590,Vestmanna,62.1564,-7.1664,42.8,81,75,31.07,FO,2021-01-16 01:10:35,broken clouds,0,0
591,Vallenar,-28.5708,-70.7581,63.88,62,0,2.13,CL,2021-01-16 01:09:00,clear sky,0,0
592,Maceio,-9.6658,-35.7353,75.2,88,40,9.66,BR,2021-01-16 01:10:35,scattered clouds,0,0
593,Vostok,46.4856,135.8833,-0.63,90,99,3.62,RU,2021-01-16 01:10:35,overcast clouds,0,0
594,Bealanana,-14.55,48.7333,66.63,93,99,1.36,MG,2021-01-16 01:10:35,overcast clouds,0,0
595,Santa Maria,-29.6842,-53.8069,80.6,74,20,3.44,BR,2021-01-16 01:10:35,few clouds,0,0
596,San Ignacio,17.1561,-89.0714,75.2,88,75,9.22,BZ,2021-01-16 01:10:35,light rain,0,0
597,Vengerovo,55.6848,76.7471,0.86,92,100,14.81,RU,2021-01-16 01:10:35,overcast clouds,0,0
598,Spasskoye,44.6108,132.7969,-2.87,91,81,5.14,RU,2021-01-16 01:10:35,broken clouds,0,0
599,Quang Ngai,15.1167,108.8,67.26,80,17,4.54,VN,2021-01-16 01:10:35,few clouds,0,0
600,Solnechnyy,50.7214,136.6319,-8.14,85,0,1.88,RU,2021-01-16 01:10:36,clear sky,0,0
601,Tazovskiy,67.4667,78.7,-15.45,88,100,16.11,RU,2021-01-16 01:10:36,overcast clouds,0,0
602,Berkak,62.825,10.0118,21.0,90,0,4.32,NO,2021-01-16 01:10:36,clear sky,0,0
603,Sterling,39.0062,-77.4286,46.0,93,90,6.98,US,2021-01-16 01:05:51,light rain,0,0
604,La Estancia,20.4167,-100.0667,64.4,22,75,4.61,MX,2021-01-16 01:10:36,broken clouds,0,0
605,Nacimiento,-37.5,-72.6667,57.96,54,0,8.81,CL,2021-01-16 01:10:36,clear sky,0,0
606,Casablanca,33.5928,-7.6192,53.01,100,40,3.44,MA,2021-01-16 01:06:33,scattered clouds,0,0
607,Progress,40.2851,-76.8314,44.6,87,90,5.75,US,2021-01-16 01:10:37,mist,0,0
608,Nabire,-3.3667,135.4833,83.86,67,100,3.27,ID,2021-01-16 01:10:37,overcast clouds,0,0
609,Buala,-8.145,159.5921,85.82,65,99,7.76,SB,2021-01-16 01:10:37,overcast clouds,0,0
610,Kuusamo,65.9667,29.1833,12.2,92,90,5.75,FI,2021-01-16 01:10:37,overcast clouds,0,0
611,Isabela,6.7085,121.9711,80.6,89,75,3.11,PH,2021-01-16 01:10:37,broken clouds,0,0
612,Saint Simons,31.1352,-81.3901,55.4,94,75,6.91,US,2021-01-16 01:10:37,broken clouds,0,0
613,Ergani,38.2653,39.7621,44.6,70,75,10.36,TR,2021-01-16 01:10:37,light rain,0,0
614,Havre-Saint-Pierre,50.2334,-63.5986,19.4,100,1,5.12,CA,2021-01-16 01:10:37,clear sky,0,0
615,Zhenlai,45.8495,123.2973,-3.41,80,0,7.05,CN,2021-01-16 01:10:37,clear sky,0,0
616,Oranjemund,-28.55,16.4333,62.44,86,0,2.37,NA,2021-01-16 01:10:37,clear sky,0,0
617,Romny,50.751,33.4747,7.99,93,100,10.18,UA,2021-01-16 01:10:38,overcast clouds,0,0
618,Sorland,67.667,12.6934,39.27,74,100,11.92,NO,2021-01-16 01:10:38,overcast clouds,0,0
619,Dunedin,-45.8742,170.5036,66.99,78,48,10.0,NZ,2021-01-16 01:05:43,scattered clouds,0,0
620,Belgrade,44.804,20.4651,26.6,93,0,9.22,RS,2021-01-16 01:07:25,clear sky,0,0
621,Sand,50.0,10.6,30.99,85,64,1.63,DE,2021-01-16 01:10:38,broken clouds,0,0
622,Hornepayne,49.2138,-84.7705,27.34,98,100,3.51,CA,2021-01-16 01:06:39,overcast clouds,0,0
623,Ramnagar,29.4,79.1167,49.84,59,0,2.77,IN,2021-01-16 01:10:38,clear sky,0,0
624,Matay,28.419,30.7792,44.28,64,0,2.84,EG,2021-01-16 01:10:38,clear sky,0,0
625,Olafsvik,64.8945,-23.7142,34.7,93,100,18.25,IS,2021-01-16 01:10:38,light snow,0,0
626,College,64.8569,-147.8028,14.0,79,75,3.04,US,2021-01-16 01:10:38,broken clouds,0,0
627,Acari,-15.4311,-74.6158,72.03,74,100,5.77,PE,2021-01-16 01:10:39,overcast clouds,0,0
628,Krasnokamensk,50.0979,118.0369,-6.48,87,0,12.84,RU,2021-01-16 01:10:39,clear sky,0,0
629,Urumqi,43.801,87.6005,-13.0,84,75,2.24,CN,2021-01-16 01:10:39,fog,0,0
630,Ocampo,21.65,-101.5,54.21,34,64,5.59,MX,2021-01-16 01:10:39,broken clouds,0,0
631,Talnakh,69.4865,88.3972,-35.37,73,0,6.8,RU,2021-01-16 01:07:18,clear sky,0,0
632,Conde,-7.2597,-34.9075,77.0,83,20,4.61,BR,2021-01-16 01:10:39,few clouds,0,0
633,Hesperia,34.4264,-117.3009,63.0,21,76,2.98,US,2021-01-16 01:10:39,broken clouds,0,0
634,Shimoda,34.6667,138.95,57.2,67,20,14.97,JP,2021-01-16 01:10:39,few clouds,0,0
635,Kardamaina,36.7814,27.1425,46.4,71,20,10.63,GR,2021-01-16 01:10:39,few clouds,0,0
636,Nemuro,43.3236,145.575,30.2,100,75,6.91,JP,2021-01-16 01:10:39,light rain,0,0
637,Meiganga,6.5167,14.3,59.29,33,0,2.53,CM,2021-01-16 01:10:39,clear sky,0,0
638,Kyaukse,21.6,96.1333,55.4,88,20,2.3,MM,2021-01-16 01:10:39,haze,0,0
639,Nobres,-14.7203,-56.3275,75.27,90,100,3.94,BR,2021-01-16 01:10:40,heavy intensity rain,0,0
640,Bassano,50.7834,-112.4685,33.8,80,100,9.22,CA,2021-01-16 01:10:40,overcast clouds,0,0
641,Lithgow,-33.4833,150.15,75.99,27,0,9.48,AU,2021-01-16 01:10:40,clear sky,0,0
642,Pitimbu,-7.4706,-34.8086,77.0,83,20,4.61,BR,2021-01-16 01:10:40,few clouds,0,0
643,Akhnur,32.8667,74.7333,46.4,100,90,2.77,IN,2021-01-16 01:10:40,fog,0,0
644,Hanyang,32.1371,105.5126,48.0,39,100,1.99,CN,2021-01-16 01:10:40,overcast clouds,0,0
645,Shenjiamen,29.9576,122.298,44.31,77,99,21.3,CN,2021-01-16 01:08:06,overcast clouds,0,0
646,Coquimbo,-29.9533,-71.3436,59.0,94,0,8.05,CL,2021-01-16 01:10:40,clear sky,0,0
647,Emba,48.8264,58.1442,21.81,95,100,7.18,KZ,2021-01-16 01:10:40,overcast clouds,0,0
648,Seoul,37.5683,126.9778,24.8,68,0,5.75,KR,2021-01-16 01:10:40,clear sky,0,0
649,Dalby,-27.1833,151.2667,90.0,38,0,1.99,AU,2021-01-16 01:10:41,clear sky,0,0
650,Alekseyevsk,57.8406,108.3492,-24.83,82,100,4.18,RU,2021-01-16 01:10:41,overcast clouds,0,0
651,Kodinar,20.7903,70.7031,66.29,33,0,5.23,IN,2021-01-16 01:10:41,clear sky,0,0
652,Byron Bay,-28.65,153.6167,80.01,69,40,17.27,AU,2021-01-16 01:10:41,scattered clouds,0,0
653,Tezu,27.9167,96.1667,60.22,48,26,2.95,IN,2021-01-16 01:10:41,scattered clouds,0,0
654,Berdigestyakh,62.0989,126.6992,-34.42,82,100,3.83,RU,2021-01-16 01:10:41,overcast clouds,0,0
655,Inhambane,-23.865,35.3833,81.05,85,95,8.5,MZ,2021-01-16 01:10:41,light rain,0,0
656,Matadi,-5.8167,13.45,74.12,84,100,2.26,CD,2021-01-16 01:10:41,overcast clouds,0,0
657,Longyan,25.1072,117.0225,64.0,39,0,1.68,CN,2021-01-16 01:10:42,clear sky,0,0
658,Cesena,44.1391,12.2432,44.01,93,20,3.44,IT,2021-01-16 01:10:42,few clouds,0,0
659,Nurota,40.5614,65.6886,46.4,46,82,13.8,UZ,2021-01-16 01:10:42,broken clouds,0,0
660,Cobija,-11.0267,-68.7692,74.17,95,93,2.13,BO,2021-01-16 01:10:42,overcast clouds,0,0
661,Santa Rosa,14.3122,121.1114,82.99,74,20,3.44,PH,2021-01-16 01:10:42,few clouds,0,0
662,Intipuca,13.1969,-88.0544,76.84,77,100,4.05,SV,2021-01-16 01:10:42,overcast clouds,0,0
663,Ouesso,1.6136,16.0517,74.19,62,50,1.52,CG,2021-01-16 01:10:42,scattered clouds,0,0
664,Salinopolis,-0.6136,-47.3561,79.32,79,5,11.36,BR,2021-01-16 01:10:43,clear sky,0,0
665,Talcahuano,-36.7167,-73.1167,59.0,72,0,16.11,CL,2021-01-16 01:10:43,clear sky,0,0
666,Sombrio,-29.1139,-49.6167,74.01,87,6,8.97,BR,2021-01-16 01:10:43,clear sky,0,0
667,Kilindoni,-7.9139,39.6668,79.75,81,100,9.71,TZ,2021-01-16 01:10:43,overcast clouds,0,0
668,Kisangani,0.5167,25.2,69.46,94,96,2.13,CD,2021-01-16 01:10:43,overcast clouds,0,0
669,Hamilton,39.1834,-84.5333,37.0,69,1,4.25,US,2021-01-16 01:10:30,clear sky,0,0
670,Onokhino,56.925,65.5394,12.2,73,0,6.71,RU,2021-01-16 01:10:43,clear sky,0,0
671,Carutapera,-1.195,-46.02,77.85,82,10,7.36,BR,2021-01-16 01:10:43,clear sky,0,0
672,Gweta,-20.1833,25.2333,73.4,79,100,8.03,BW,2021-01-16 01:10:43,overcast clouds,0,0
673,Leshukonskoye,64.8989,45.7622,-18.58,85,0,2.24,RU,2021-01-16 01:10:43,clear sky,0,0
674,Beian,63.6559,9.5683,28.4,86,75,14.97,NO,2021-01-16 01:10:43,broken clouds,0,0
675,Sola,-13.8833,167.55,83.21,75,96,13.71,VU,2021-01-16 01:10:43,moderate rain,0,0
676,Egvekinot,66.3167,-179.1667,-8.7,88,100,15.95,RU,2021-01-16 01:10:44,overcast clouds,0,0
677,Solginskiy,61.05,41.3428,-11.97,88,100,4.43,RU,2021-01-16 01:10:44,overcast clouds,0,0
678,Metro,-5.1131,105.3067,78.8,83,100,3.94,ID,2021-01-16 01:10:44,light rain,0,0
679,Opuwo,-18.0607,13.84,62.74,75,38,2.35,NA,2021-01-16 01:10:44,scattered clouds,0,0
680,Lasa,46.6166,10.7002,21.0,85,0,9.22,IT,2021-01-16 01:10:44,clear sky,0,0
681,Goderich,43.7501,-81.7165,35.6,87,100,10.36,CA,2021-01-16 01:10:44,overcast clouds,0,0
682,Adrar,20.5022,-10.0711,60.26,26,100,11.61,MR,2021-01-16 01:10:44,overcast clouds,0,0
683,Tatawin,32.9297,10.4518,48.2,46,87,5.75,TN,2021-01-16 01:10:44,overcast clouds,0,0
684,Constitucion,-35.3333,-72.4167,56.14,76,0,17.4,CL,2021-01-16 01:10:44,clear sky,0,0
685,Akhmeta,42.0311,45.2075,39.2,75,75,8.05,GE,2021-01-16 01:10:44,broken clouds,0,0
686,Bull Savanna,17.8868,-77.5902,72.55,86,80,7.58,JM,2021-01-16 01:10:45,broken clouds,0,0
687,Gornyy,55.1153,83.9059,-4.22,90,100,9.8,RU,2021-01-16 01:10:45,overcast clouds,0,0
688,Strelka,58.0728,93.0344,-6.79,89,100,4.29,RU,2021-01-16 01:10:45,overcast clouds,0,0
689,Krumbach,48.2418,10.3632,25.0,80,89,4.36,DE,2021-01-16 01:10:45,overcast clouds,0,0
690,Alyangula,-13.8483,136.4192,87.8,79,75,4.61,AU,2021-01-16 01:10:45,broken clouds,0,0
691,Pandan,14.0453,124.1694,78.71,84,100,18.03,PH,2021-01-16 01:10:45,moderate rain,0,0
692,Harbin,45.75,126.65,-14.8,84,0,4.47,CN,2021-01-16 01:10:45,clear sky,0,0
693,Urusha,54.05,122.9,-19.08,87,100,0.29,RU,2021-01-16 01:10:45,overcast clouds,0,0
694,Corsicana,32.0954,-96.4689,46.99,36,1,8.05,US,2021-01-16 01:10:45,clear sky,0,0
695,Devils Lake,48.1128,-98.8651,21.2,86,90,12.66,US,2021-01-16 01:10:34,overcast clouds,0,0
696,Nisia Floresta,-6.0911,-35.2086,80.6,83,40,9.22,BR,2021-01-16 01:10:46,scattered clouds,0,0
697,Middle Island,40.8843,-72.9373,45.0,76,75,10.36,US,2021-01-16 01:10:46,broken clouds,0,0
698,Iwanai,42.9744,140.5089,34.34,90,94,15.59,JP,2021-01-16 01:10:46,light snow,0,0
699,Imbituba,-28.24,-48.6703,77.0,83,75,2.3,BR,2021-01-16 01:06:16,broken clouds,0,0
700,Asau,46.4333,26.4,21.2,79,75,1.92,RO,2021-01-16 01:10:46,broken clouds,0,0
701,Dubna,56.7333,37.1667,-2.9,92,100,5.84,RU,2021-01-16 01:10:46,overcast clouds,0,0
702,Wanning,18.8003,110.3967,69.85,83,32,6.93,CN,2021-01-16 01:10:46,scattered clouds,0,0
703,Viedma,-40.8135,-62.9967,64.0,80,0,11.86,AR,2021-01-16 01:10:46,clear sky,0,0
704,Jiangyou,31.7667,104.7167,47.93,49,100,3.96,CN,2021-01-16 01:10:46,overcast clouds,0,0
705,Santarem,-2.4431,-54.7083,75.2,94,0,2.3,BR,2021-01-16 01:10:46,clear sky,0,0
706,Jacareacanga,-6.2222,-57.7528,74.39,96,100,1.81,BR,2021-01-16 01:10:47,light rain,0,0
707,Luba,3.4568,8.5547,75.2,80,20,3.44,GQ,2021-01-16 01:10:47,few clouds,0,0
708,Sistranda,63.7256,8.834,28.4,86,75,14.97,NO,2021-01-16 01:10:47,broken clouds,0,0
709,Mirnyy,62.5353,113.9611,-37.01,82,100,3.31,RU,2021-01-16 01:10:47,overcast clouds,0,0
710,Djibo,14.1022,-1.6306,69.1,20,0,8.32,BF,2021-01-16 01:08:05,clear sky,0,0
711,Llangefni,53.2556,-4.3106,43.0,93,90,28.77,GB,2021-01-16 01:10:47,moderate rain,0,0
712,Caravelas,-17.7125,-39.2481,74.93,91,100,5.75,BR,2021-01-16 01:10:47,overcast clouds,0,0
713,Erenhot,43.6475,111.9767,-7.69,84,0,7.02,CN,2021-01-16 01:10:47,clear sky,0,0
714,Oriximina,-1.7656,-55.8661,80.35,69,77,1.34,BR,2021-01-16 01:09:51,broken clouds,0,0
715,Guilin,25.2819,110.2864,48.2,87,75,9.62,CN,2021-01-16 01:10:47,broken clouds,0,0
716,Qasigiannguit,68.8193,-51.1922,15.8,62,75,9.22,GL,2021-01-16 01:10:47,broken clouds,0,0
717,Pangody,65.85,74.4859,0.14,93,100,9.48,RU,2021-01-16 01:10:48,light snow,0,0
718,Birao,10.2849,22.7882,64.74,28,0,6.24,CF,2021-01-16 01:10:48,clear sky,0,0
719,Bada,51.392,109.8717,0.01,88,100,13.6,RU,2021-01-16 01:10:48,overcast clouds,0,0
720,Boyolangu,-8.1181,111.8935,80.29,73,100,1.83,ID,2021-01-16 01:10:48,light rain,0,0
721,Bulungu,-4.55,18.6,69.84,91,92,1.86,CD,2021-01-16 01:10:48,overcast clouds,0,0
722,Zakamensk,50.3741,103.2863,-15.03,78,100,4.16,RU,2021-01-16 01:10:48,overcast clouds,0,0
723,Iberia,29.9502,-91.7507,50.0,49,1,6.91,US,2021-01-16 01:10:48,clear sky,0,0
